codigo_estacion,nombre_estacion,municipio,departamento,latitud,longitud
23125160,SAN PABLO DE BORBUR  - AUT,San Pablo De Borbur,BOYACÁ,5.647027778,-74.07130556
24035410,SOGAMOSO - AUT,Sogamoso,BOYACÁ,5.753333333,-72.91115278
23125501,PAUNA  - AUT,Pauna,BOYACÁ,5.657130556,-73.96032778
35085070,SANTA MARIA - AUT,Santa María,BOYACÁ,4.84125,-73.25669444
24035360,SOCHA - AUT,Socha,BOYACÁ,5.985416667,-72.99702778
35071001,TEATINOS - ESTACION EN PRUEBA,Boyacá,BOYACÁ,5.439,-73.351
24015501,BERTHA  - AUT,Moniquirá,BOYACÁ,5.882777778,-73.57333056
24035370,EL ESPINO - AUT,El Espino,BOYACÁ,6.506722222,-72.45266667
35160010,PR TOTA: POTRERITO,Aquitania,BOYACÁ,5.478,-72.949
24035250,CHITA  - AUT,Chita,BOYACÁ,6.188333333,-72.46633333
35095120,AQUITANIA - AUT,Aquitania,BOYACÁ,5.556638889,-72.88175
35075070,CHINAVITA - AUT,Chinavita,BOYACÁ,5.21925,-73.35038889
2401500080,PANELAS - AUT,Motavita,BOYACÁ,5.634380556,-73.386469444
35167010,PROYECTO TOTA: HATO LAGUNA,Aquitania,BOYACÁ,5.584,-72.9
3507500133,TEATINOS - AUT,Boyacá,BOYACÁ,5.422822222,-73.375777778
35195060,PERENCO: TOQUILLA,Aquitania,BOYACÁ,5.524,-72.791
35215030,PERENCO: PISBA,Pisva,BOYACÁ,5.721,-72.488
35077180,CULIMA - CHIVOR RIO BATA,Santa María,BOYACÁ,4.763,-73.293
2403500082,SIACHOQUE - AUT,Siachoque,BOYACÁ,5.506097222,-73.251052778
35085060,ZETAQUIRA - AUT,Zetaquirá,BOYACÁ,5.294944444,-73.16994444
24017705,LA BALSA CHIQUINQUIRA - CAR,Chiquinquirá,BOYACÁ,5.624,-73.792
35167020,PR TOTA: LAGO DE TOTA,Aquitania,BOYACÁ,5.557,-72.88
23125140,AEROPUERTO FURATENA  - AUT,Quípama,BOYACÁ,5.520833333,-74.18241667
3508700103,PUENTE CAMPANA - AUT,Santa María,BOYACÁ,4.844166667,-73.223030556
3507500046,GRANJA GUAYATA - AUT,Guayatá,BOYACÁ,4.976083333,-73.484027778
24015509,ARCABUCO - ISAGEN - Estacion en Pruebas,Arcabuco,BOYACÁ,5.762,-73.445
35075080,PARAMO RABANAL - AUT,Ventaquemada,BOYACÁ,5.392388889,-73.56277778
35077320,CARACOL - CHIVOR,Garagoa,BOYACÁ,5.11,-73.393
24035430,TUNGUAVITA - AUT,Paipa,BOYACÁ,5.745916667,-73.11636111
35217090,PERENCO: LABRANZA GRANDE,Labranzagrande,BOYACÁ,5.567,-72.584
2401500086,TUNJA-U.P.T.C - AUT,Samacá,BOYACÁ,5.4417,-73.5522
2403500081,SOTAQUIRÁ - AUT,Sotaquirá,BOYACÁ,5.749661111,-73.234922222
35165000,EL TUNEL,Cuítiva,BOYACÁ,5.575,-72.941
35160020,PR TOTA: LLANO ALARCON,Cuítiva,BOYACÁ,5.6,-72.913
24017740,PUENTE CHACON  - AUT,Villa De Leiva,BOYACÁ,5.677888889,-73.54213889
35085080,LA CAPILLA - AUT,La Capilla,BOYACÁ,5.099194444,-73.436
35160000,PR TOTA: LAS CINTAS,Sogamoso,BOYACÁ,5.614,-72.867
24015504,RAQUIRA - CAR,Ráquira,BOYACÁ,5.536,-73.641
2403500041,DUITAMA - AUT,Paipa,BOYACÁ,5.78755,-73.081783333
35197020,VADO HONDO  - AUT,Aquitania,BOYACÁ,5.506805556,-72.75480556
24037080,LA GRUTA  - AUT,Pesca,BOYACÁ,5.566972222,-73.04672222
35077150,PUNTEADERO - CHIVOR,Chinavita,BOYACÁ,5.191,-73.386
2403500084,MONGUA - AUT,Mongua,BOYACÁ,5.758019444,-72.79485
24017600,MONIQUIRA  - AUT,Moniquirá,BOYACÁ,5.878138889,-73.57025
24017706,PTE MERCHAN - CAR,Saboyá,BOYACÁ,5.696,-73.754
35077080,PTE FIERRO - CHIVOR,Somondoco,BOYACÁ,4.985,-73.463
2311700155,PUERTO BOYACA - AUT,Puerto Boyacá,BOYACÁ,5.980258333,-74.594969444
24015300,VILLA DE LEIVA  - AUT,Villa De Leiva,BOYACÁ,5.655833333,-73.54394444
24037290,PUENTE CHAMEZA  - AUT,Sogamoso,BOYACÁ,5.759888889,-72.90652778
24025030,LA SIERRA - AUT,Paipa,BOYACÁ,5.966388889,-73.16389139
2403500083,PESCA - AUT,Pesca,BOYACÁ,5.523033333,-73.076847222
35197190,PAJARITO - AUT,Pajarito,BOYACÁ,5.283472222,-72.70194444
35167000,LAGO DE TOTA,Aquitania,BOYACÁ,5.545,-72.884
24037030,EL PALO - AUT,Tuta,BOYACÁ,5.681722222,-73.23113889
24030350,DUITAMA,Duitama,BOYACÁ,5.83,-73.045
37037010,PASO DE LA CANOA - AUT,Cubará,BOYACÁ,7.034555556,-72.15261111
35235010,CARDON EL,Socotá,BOYACÁ,6.012,-72.529
24037490,PUENTE TOTUMO  - AUT,Boavita,BOYACÁ,6.437972222,-72.63830556
24037190,SAN RAFAEL  - AUT,Tibasosa,BOYACÁ,5.807611111,-73.01380556
24035507,SOCHA  - AUT,Socha,BOYACÁ,5.982444444,-72.71044444
2403000117,PM LA LAGUNA,Guacamayas,BOYACÁ,6.447166667,-72.497694444
24035340,AEROPUERTO A LLERAS C,Sogamoso,BOYACÁ,5.677,-72.968
2403700149,PUENTE LA RAMADA - AUT,Chiscas,BOYACÁ,6.5607,-72.5012
2403000113,LAS CAÑAS - AUT,Chiscas,BOYACÁ,6.6058,-72.4836
2403000114,LAS MERCEDES - AUT,Chiscas,BOYACÁ,6.5774,-72.479
35087020,PAEZ,Campohermoso,BOYACÁ,5.083,-73.068
35080050,PAEZ,Páez,BOYACÁ,5.096,-73.053
23115010,PUERTO BOYACA,Puerto Boyacá,BOYACÁ,5.978,-74.567
35197070,PUENTE LAS CANAS,Aquitania,BOYACÁ,5.587,-72.815
35195050,CORINTO,Pajarito,BOYACÁ,5.407,-72.717
35075040,INSTITUCION AGRICOLA MACANAL,Macanal,BOYACÁ,4.974,-73.317
24035510,TASCO-24035510,Tasco,BOYACÁ,5.909277778,-72.78380556
3516700232,EL TOBAL,Aquitania,BOYACÁ,5.512222222,-72.865555556
24015220,VILLA CARMEN,Samacá,BOYACÁ,5.509388889,-73.49577778
24035503,CORRALES ACUEDUCTO,Corrales,BOYACÁ,5.818416667,-72.84411111
2311500200,PUERTO SERVIEZ,Puerto Boyacá,BOYACÁ,6.22245,-74.562455556
35075030,VILLA LUISA,Ramiriquí,BOYACÁ,5.422222222,-73.34941667
23125080,OTANCHE,Otanche,BOYACÁ,5.661722222,-74.18461111
23125100,BUENAVISTA,Buenavista,BOYACÁ,5.514916667,-73.94311111
24035505,JERICÓ-24035505,Jericó,BOYACÁ,6.140444444,-72.59033333
24035508,SAN ANTONIO-24035508,Tuta,BOYACÁ,5.698361111,-73.23536111
24035502,CAPITANEJO 1 COLTABACO,Covarachía,BOYACÁ,6.517833333,-72.69319444
35090060,CAZADERO,Aquitania,BOYACÁ,5.283333333,-72.98333333
35077090,PUENTE ADRIANA,Jenesano,BOYACÁ,5.385,-73.36163889
24030140,SIACHOQUE,Siachoque,BOYACÁ,5.5135,-73.243883333
24035506,LA REFORMA-24035506,Sotaquirá,BOYACÁ,5.748722222,-73.18980556
24035380,NEVADO DEL COCUY,Guicán,BOYACÁ,6.50911,-72.31417
35085040,VIVERO EL,Miraflores,BOYACÁ,5.192555556,-73.14477778
35090070,GUAMO DE SISBACA,Aquitania,BOYACÁ,5.366666667,-72.91666667
26155505,GRANJA LUKER  - AUT,Palestina,CALDAS,5.070275,-75.68555278
26155220,VILLAMARIA - AUT,Villamaria,CALDAS,5.048666667,-75.51388889
26145506,FILO BONITO  - AUT,Belalcazar,CALDAS,4.986358333,-75.84574722
26135503,NARANJAL  - AUT,Chinchina,CALDAS,4.971944444,-75.65221944
26135320,NEVADO SANTA ISABEL  - AUT,Villamaria,CALDAS,4.802611111,-75.38047222
26157190,RIO CLARO - AUT,Villamaria,CALDAS,4.900916667,-75.45111111
26155270,SAN ANTONIO CALDAS - AUT,Villamaria,CALDAS,4.886611111,-75.42897222
23055501,SANTA HELENA  - AUT,Marquetalia,CALDAS,5.317497222,-74.99610833
26155260,SENDERO LAGUNA VERDE  - AUT,Villamaria,CALDAS,4.840666667,-75.36161111
26175501,RAFAEL ESCOBAR  - AUT,Supia,CALDAS,5.45,-75.63305556
26187040,QUITASUENO  - AUT,Aguadas,CALDAS,5.721138889,-75.55258333
26155240,PNN NEVADOS - AUT,Villamaria,CALDAS,4.859444444,-75.38241667
26165501,EL CIPRES  - AUT,Salamina,CALDAS,5.433333333,-75.5
26155250,PARAMO CONEJERAS  - AUT,Villamaria,CALDAS,4.829805556,-75.37583333
23025502,ALMACAFE LETRAS  - AUT,Manizales,CALDAS,5.044997222,-75.33221944
2302500064,MANZANARES - AUT,Manzanares,CALDAS,5.265055556,-75.143055556
23055502,VILLARAZ  - AUT,Pensilvania,CALDAS,5.383333333,-75.06638889
26145508,SAN JOSE  - AUT,San Jose,CALDAS,5.094972222,-75.79174722
26145505,LA FLORESTA  - AUT,Belalcazar,CALDAS,4.979219444,-75.83555556
2302500037,BRASIL - AUT,Marulanda,CALDAS,5.139916667,-75.316638889
26145507,LAS TANGAS  - AUT,Belalcazar,CALDAS,5.038,-75.80599722
23025501,MANZANARES  - AUT,Manzanares,CALDAS,5.163913889,-75.11740833
26155502,CENICAFE  - AUT,Manizales,CALDAS,4.991111111,-75.59749722
26155230,EMAS - AUT,Manizales,CALDAS,5.08525,-75.50713889
26155150,LAS BRISAS - AUT,Villamaria,CALDAS,4.934527778,-75.35038889
2614500116,EL JARDIN CUENCA ALTA RIO RISARALDA - AUT,Riosucio,CALDAS,5.532161111,-75.768947222
26155503,PLANALTO  - AUT,Manizales,CALDAS,4.989722222,-75.58971944
26155170,TESORITO FINCA  - AUT,Manizales,CALDAS,5.032222222,-75.43833333
26180250,VALLE ALTO  - AUT,Salamina,CALDAS,5.35,-75.31777778
26145503,ANSERMA  - AUT,Anserma,CALDAS,5.231330556,-75.77961667
2614500112,BELLAVISTA - JESUS MARIA - AUT,Anserma,CALDAS,5.275944444,-75.800166667
2615500122,LA ESPERANZA ANDALUCIA - AUT,Manizales,CALDAS,5.017777778,-75.356583333
26167070,IRRA  - AUT,Neira,CALDAS,5.268305556,-75.66419444
2305500055,SAN JOSE DE PENSILVANIA - AUT,Pensilvania,CALDAS,5.372638889,-75.150138889
26147140,PUENTE NEGRO  - AUT,Belalcazar,CALDAS,4.987944444,-75.85891667
23020080,MANZANARES,Manzanares,CALDAS,5.266,-75.144
26155110,AEROPUERTO LA NUBIA,Manizales,CALDAS,5.03,-75.47
11047040,QUIBDO - AUT,Quibdó,CHOCO,5.697991667,-76.66225833
54017040,TADO - AUT,Tadó,CHOCO,5.265111111,-76.56275
11135030,UNGUIA - AUT,Unguía,CHOCO,8.036722222,-77.08786111
55015010,PIE DE PATO - AUT,Alto Baudó (Pie De Pato),CHOCO,5.521083333,-76.97316667
11045010,PR CHOCO: APTO EL CARANO,Quibdó,CHOCO,5.691,-76.644
11025501,CARMEN DE ATRATO  - AUT,El Carmen,CHOCO,5.888719444,-76.14516667
11027030,EL SIETE - AUT,El Carmen,CHOCO,5.862,-76.15205556
54057010,NOANAMA ASERRIO,Medio San Juan,CHOCO,4.673,-76.933
1117500060,LLORO - AUT,Lloró,CHOCO,5.514722222,-76.575833333
11175000,ATRATO,Atrato,CHOCO,5.58835,-76.64351
54015020,TADO,Tadó,CHOCO,5.270111111,-76.551836111
54010010,ISTMINA,Istmina,CHOCO,5.15875,-76.689222222
54027050,RIO IRO,Rio Iró,CHOCO,5.116622222,-76.665580556
54025010,SAN JOSE PALMAR,Nóvita,CHOCO,4.898083333,-76.676666667
56015010,PANAMERICANA,Bahía Solano,CHOCO,6.223333333,-77.40444444
11030010,CERTEGUI,Cértegui,CHOCO,5.38,-76.61
11035030,UNION PANAMERICANA,Unión Panamericana,CHOCO,5.284827778,-76.627822222
11035010,LLORO,Lloró,CHOCO,5.499,-76.539
54050010,NOANAMA,Istmina,CHOCO,4.716666667,-76.916666667
1111700230,CURVARADO,Carmen Del Darién,CHOCO,7.159725,-76.964783333
11047020,QUIBDO,Quibdó,CHOCO,5.697778056,-76.662222222
54020020,NOVITA,Nóvita,CHOCO,4.955694444,-76.605555556
11080010,BELLAVISTA,Bojayá,CHOCO,6.559166667,-76.88541667
11017020,PR CHOCO: BAGADO,Bagadó,CHOCÓ,5.412,-76.418
56015040,PR CHOCO: JURADO,Jurado,CHOCÓ,7.104,-77.764
11105020,CARMEN DARIEN,Carmen Del Darién  (Curbaradó),CHOCÓ,7.154,-76.977
11037030,LA LOMA PUEBLO NUEVO - En Siniestro,Rio Quito (Paimadó),CHOCÓ,5.585,-76.753
11120040,PR CHOCO: RIOSUCIO,Riosucio,CHOCÓ,7.439,-77.115
11027070,BORAUDO,Lloró,CHOCÓ,5.515,-76.576
11159010,CAPURGANA - TX GPRS,Acandí,CHOCÓ,8.616,-77.331
56010040,PR CHOCO: NUQUI,Nuquí,CHOCÓ,5.708,-77.266
11050020,PR CHOCO: BETE,Medio Atrato (Beté),CHOCÓ,5.995,-76.78
55015020,PR CHOCO: BAJO BAUDO,Quibdó,CHOCÓ,4.958,-77.362
54037050,PR CHOCO: SIPI,Sipí,CHOCÓ,4.693,-76.74
54020090,PR CHOCO: APTO CONDOTO,Condoto,CHOCÓ,5.074,-76.677
54057020,PR CHOCO: LITORAL SAN JUAN,Litoral Del San Juan,CHOCÓ,4.245,-77.022
13067020,MONTERIA  - AUT,Montería,CORDOBA,8.751611111,-75.89241667
13055040,INCODER - AUT,Montería,CORDOBA,8.746944444,-75.91388889
13085030,SAN BERNARDO,San Bernardo Del Viento,CORDOBA,9.370777778,-75.94930556
25017020,SAN PEDRO - AUT,Puerto Libertador,CORDOBA,7.853888889,-75.70972222
13077060,COTOCA ABAJO  - AUT,Lorica,CORDOBA,9.224444444,-75.83444444
25017010,MONTELIBANO - AUT,Montelíbano,CORDOBA,7.987972222,-75.41733333
25017030,PICA PICA  - AUT,Montelíbano,CORDOBA,8.030277778,-75.68027778
25025190,PLANETA RICA  - AUT,Planeta Rica,CORDOBA,8.399333333,-75.58372222
12045020,CRISTO REY  - AUT,Puerto Escondido,CORDOBA,9.071111111,-76.22444444
1303500074,LOMA VERDE - AUT,Montería,CORDOBA,8.508777778,-76.175416667
2501500120,JUAN JOSE - AUT,Puerto Libertador,CORDOBA,7.730194444,-75.851580556
1303500129,SAHAGUN - AUT,Sahagún,CORDOBA,8.942472222,-75.450833333
13075010,CHIMA,Chima,CORDOBA,9.15075,-75.62208333
13027040,CANO BRAVO - AUT,Ayapel,CORDOBA,8.235847222,-74.96043889
25010010,PUERTO LIBERTADOR,Puerto Libertador,CORDOBA,7.89,-75.68
25020140,SAHAGUN,Sahagún,CORDOBA,8.942184,-75.450724
25025030,AYAPEL,Ayapel,CORDOBA,8.295063889,-75.16455556
13035501,AEROPUERTO LOS GARZONES,Montería,CORDOBA,8.825833333,-75.82513889
25020600,SAJONIA HACIENDA,Pueblo Nuevo,CORDOBA,8.489722222,-75.60138889
25027770,MARRALU,Ayapel,CORDOBA,8.31,-75.24
25020430,TREMENTINO,Montería,CORDOBA,8.716666667,-75.76666667
2502700206,CECILIA,Ayapel,CORDOBA,8.463611111,-75.031666667
25020470,CHINU,Chinú,CORDOBA,9.117777778,-75.39333333
25010060,URÉ,San Jose De Ure,CORDOBA,7.871138889,-75.509110833
13015040,REPRESA URRA,Tierralta,CORDOBA,8.014166667,-76.20305556
25027760,BEIRUT,Ayapel,CORDOBA,8.302222222,-75.13388889
26145504,OSPIRMA  - AUT,Guática,RISARALDA,5.325552778,-75.812775
26145090,SANTA EMILIA - AUT,Belén De Umbría,RISARALDA,5.207472222,-75.90294444
26137220,EL RETEN - AUT,Santa Rosa De Cabal,RISARALDA,4.728194444,-75.60344444
26135300,PNN QUIMBAYA - AUT,Pereira,RISARALDA,4.761916667,-75.74491667
26085501,LA CELIA  - AUT,La Celia,RISARALDA,5.001330556,-75.998
26125508,LACATALINA  - AUT,Pereira,RISARALDA,4.7475,-75.73805556
2613700156,PUERTO CALDAS - AUT,Pereira,RISARALDA,4.814113889,-75.917961111
26177030,LA VIRGINIA,La Virginia,RISARALDA,4.893,-75.883
26135502,EL JAZMIN  - AUT,Santa Rosa De Cabal,RISARALDA,4.911944444,-75.62416389
26135330,LA LAGUNA DEL OTUN  - AUT,Pereira,RISARALDA,4.776361111,-75.4125
26135290,MARSELLA - AUT,Marsella,RISARALDA,4.929583333,-75.73838889
26125710,APTO MATECAÑA TX GPS/GOES,Pereira,RISARALDA,4.813,-75.74
26135501,EL PILAMO  - AUT,Pereira,RISARALDA,4.868333333,-75.79333333
26145501,APIA  - AUT,Apía,RISARALDA,5.105055556,-75.93305556
26127040,CARTAGO,Pereira,RISARALDA,4.758,-75.899
54015010,PUEBLO RICO  - AUT,Pueblo Rico,RISARALDA,5.233444444,-76.03163889
2613500126,POTREROS - AUT,Santa Rosa De Cabal,RISARALDA,4.885680556,-75.558080556
23127020,PTO ARAUJO - RIO CARARE,Cimitarra,SANTANDER,6.526,-74.086
23195190,SAN ANTONIO,Floridablanca,SANTANDER,7.1,-73.066
23157030,BARRANCABERMEJA  - AUT,Barrancabermeja,SANTANDER,7.060194444,-73.876
24025090,MOGOTES - AUT,Mogotes,SANTANDER,6.47,-72.96888889
24035390,PARAMO ALMORZADERO  - AUT,Cerrito,SANTANDER,6.945388889,-72.69633333
23117030,EL TAGUAL,Cimitarra,SANTANDER,6.733,-74.16
24015503,CONFINES  - AUT,Confines,SANTANDER,6.373027778,-73.20760833
23197690,PALOGORDO - AUT,Girón,SANTANDER,6.969166667,-73.13055556
23195230,NEOMUNDO - AUT,Bucaramanga,SANTANDER,7.102611111,-73.10730556
24025504,ENCINO - ISAGEN,Encino,SANTANDER,6.14,-73.099
23195502,APTO PALONEGRO,Lebrija,SANTANDER,7.121,-73.185
24025501,ALBERTO SANTOS  - AUT,Socorro,SANTANDER,6.493052778,-73.22111111
2401500052,PUENTE GUILLERMO - AUT,Puente Nacional,SANTANDER,5.796416667,-73.726666667
23190130,TONA  - AUT,Tona,SANTANDER,7.196111111,-72.97055556
24025050,CHARALA - ISAGEN - Estacion en Pruebas,Charalá,SANTANDER,6.274,-73.151
23190700,PIEDECUESTA GRANJA,Piedecuesta,SANTANDER,6.993333333,-73.06777778
2401700091,LAS MINAS - AUT,Zapatoca,SANTANDER,6.769888889,-73.224222222
23180070,SABANA DE TORRES,Sabana De Torres,SANTANDER,7.39,-73.48944444
24015502,SUAITA  - AUT,Suaita,SANTANDER,6.088602778,-73.44859722
2403500085,SUSA - AUT,Onzaga,SANTANDER,6.187794444,-72.835602778
24055501,CHUCURI  - AUT,San Vicente De Chucurí,SANTANDER,6.863566667,-73.38411667
23195090,VIVERO SURATA  - AUT,Suratá,SANTANDER,7.365833333,-72.9875
2319500043,FLORIDABLANCA - AUT,Floridablanca,SANTANDER,7.0568,-73.1094
24055070,SAN  VICENTE DE CHUCURI  - AUT,San Vicente De Chucurí,SANTANDER,6.823388889,-73.47205556
24030950,MALAGA 2,Málaga,SANTANDER,6.706388889,-72.72972222
23195110,LLANO GRANDE  - AUT,Girón,SANTANDER,7.025555556,-73.16722222
37015030,BERLIN - AUT,Tona,SANTANDER,7.187,-72.8685
24055080,VIZCAINA LA LIZAMA  - AUT,Barrancabermeja,SANTANDER,6.982972222,-73.70488889
23195200,CACHIRI  - AUT,Suratá,SANTANDER,7.473888889,-72.99111111
24030680,EL PARAMO - AUT,Carcasí,SANTANDER,6.653333333,-72.59083333
24017640,LA CEIBA - AUT,Socorro,SANTANDER,6.448888889,-73.30694444
24017590,PUENTE NACIONAL - AUT,Puente Nacional,SANTANDER,5.872777778,-73.67777778
24025506,SAN GIL - ISAGEN Estacion en Pruebas,San Gil,SANTANDER,6.547,-73.128
2319500137,VETAS - AUT,Vetas,SANTANDER,7.3102,-72.8762
24035501,ARATOCA  - AUT,Aratoca,SANTANDER,6.70155,-73.06749167
23197700,MAJADAS - AUT,Bucaramanga,SANTANDER,7.160277778,-73.09305556
24027070,MERIDA - AUT,Páramo,SANTANDER,6.444722222,-73.15833333
24015510,CONFINES - ISAGEN Estacion en Pruebas,Confines,SANTANDER,6.355,-73.239
23195501,SAN ANTONIO  - AUT,Floridablanca,SANTANDER,7.099441667,-73.06638611
23127060,SANTA ROSA  - AUT,Cimitarra,SANTANDER,6.291944444,-74.09833333
23145501,EL CARMEN - ISAGEN - Estacion en Pruebas,El Carmen,SANTANDER,6.699,-73.513
2319700096,SAN JUAN DE LOS CHORROS - AUT,Puerto Wilches,SANTANDER,7.692805556,-73.774055556
2405700149,EL JUNCAL - AUT,Los Santos,SANTANDER,6.793777778,-73.198638889
24015513,GRANJA VELEZ-ISAGEN Estacion en Pruebas,Vélez,SANTANDER,5.997,-73.673
2314700159,RIO LA COLORADA - AUT,Simacota,SANTANDER,6.854594444,-73.7674
23195040,UNIV IND SANTANDER,Bucaramanga,SANTANDER,7.145,-73.122
23155030,AEROPUERTO YARIGUIES,Barrancabermeja,SANTANDER,7.026,-73.809
24015517,CHIMA-24015517,Chima,SANTANDER,6.354969444,-73.3683
24055503,LA FUENTE,Palmar,SANTANDER,6.5497,-73.291925
24065010,HACIENDA LAS BRISAS,Puerto Wilches,SANTANDER,7.246111111,-73.79
2319500207,SANTURBAN,Vetas,SANTANDER,7.335194444,-72.858972222
24025502,CHARALA-24025502,Charalá,SANTANDER,6.281416667,-73.13586944
24017707,SAN BENITO-24017707,San Benito,SANTANDER,6.118138889,-73.49328056
23147020,PUENTE FERROCARRIL OPÓN,Simacota,SANTANDER,6.773611111,-73.935
23197370,SAN RAFAEL,Sabana De Torres,SANTANDER,7.578055556,-73.56055556
24057070,PUENTE FERROCARRIL CIENEGA,Barrancabermeja,SANTANDER,7.109444444,-73.85472222
23190380,PALMAS,Lebrija,SANTANDER,7.211083333,-73.21788889
23127050,BARREDERO FINCA,Puerto Parra,SANTANDER,6.645555556,-74.06527778
24050070,PUTANA LA,San Vicente De Chucurí,SANTANDER,7.127166667,-73.52055556
24015515,OIBA-24015515,Oiba,SANTANDER,6.262666667,-73.31266667
23190440,NARANJO EL,Lebrija,SANTANDER,7.205,-73.29972222
24015514,LA LAJA-24015514,Guadalupe,SANTANDER,6.237166667,-73.41533333
24015511,EL OLIVAL-24015511,Suaita,SANTANDER,6.1515,-73.34172222
23125120,CIMITARRA,Cimitarra,SANTANDER,6.308611111,-73.95222222
24035509,SUSA-24035509,Onzaga,SANTANDER,6.188611111,-72.83497222
24025503,CURITI NO. 1,Curití,SANTANDER,6.598361111,-73.05297222
24015519,SUAITA1-24015519,Suaita,SANTANDER,6.099022222,-73.44255278
24015512,GAMBITA-24015512,Gámbita,SANTANDER,5.944802778,-73.34374167
24025505,ESC AGR MOGOTES,Mogotes,SANTANDER,6.470027778,-72.97002778
24055504,ZAPATOCA-24055504,Zapatoca,SANTANDER,6.792763889,-73.27675
23190600,PANTANO EL,Girón,SANTANDER,6.9975,-73.23027778
23147040,AYACUCHO,Simacota,SANTANDER,6.855805556,-73.76933333
21185501,ROVIRA  - AUT,Rovira,TOLIMA,4.266666667,-75.28305556
21137050,RIO ANGOSTURA  - AUT,Natagaima,TOLIMA,3.443194444,-75.11880556
22057010,PIEDRAS DE COBRE  - AUT,Saldaña,TOLIMA,3.908388889,-75.10327778
21215180,BATALLON ROOKE  - AUT,Ibagué,TOLIMA,4.418388889,-75.24866667
2121500042,EL SILENCIO - AUT,Ibagué,TOLIMA,4.600222222,-75.336
21167080,LA MORA - AUT,Prado,TOLIMA,3.725194444,-74.82644444
21257120,PUENTE NEGRO  - AUT,Villahermosa,TOLIMA,4.940194444,-75.08980556
21137010,PURIFICACION,Purificación,TOLIMA,3.85,-74.936
22025501,ATACO  - AUT,Ataco,TOLIMA,3.416666667,-75.63305556
21215170,LA MARTINICA,Ibagué,TOLIMA,4.402,-75.229
21215190,CAJAMARCA - AUT,Cajamarca,TOLIMA,4.435666667,-75.50036111
21255160,HACIENDA PAJONALES,Ambalema,TOLIMA,4.760722222,-74.83425
23017040,LA ESPERANZA- GUALÍ,Mariquita,TOLIMA,5.206,-74.914
21255170,MURILLO - AUT,Murillo,TOLIMA,4.870555556,-75.17327778
22075050,PARAMO DE YERBABUENA  - AUT,Roncesvalles,TOLIMA,4.075805556,-75.70083333
2201500047,HERRERA - AUT,Planadas,TOLIMA,3.284138889,-75.80245
21185090,NATAIMA - AUT,Espinal,TOLIMA,4.188138889,-74.96047222
21160260,PUERTO LLERAS TOLIMA  - AUT,Villarrica,TOLIMA,3.839777778,-74.68830556
21215160,CERROS NOROCCIDENTALES  - AUT,Ibagué,TOLIMA,4.470361111,-75.24386111
21165502,VILLARICA  - AUT,Villarrica,TOLIMA,3.955641667,-74.59178611
21167060,SAN PABLO TOLIMA  - AUT,Cunday,TOLIMA,3.926666667,-74.65694444
21215501,ESPERANZA LA  - AUT,Ibagué,TOLIMA,4.45,-75.25
22045502,EL RUBY  - AUT,Planadas,TOLIMA,3.95,-75.66666667
21165501,DOLORES  - AUT,Dolores,TOLIMA,3.537155556,-74.82982778
21217200,CARMEN EL,Rovira,TOLIMA,4.300611111,-75.20655556
21217180,MONTEZUMA - RIO COMBEIMA,Ibagué,TOLIMA,4.482,-75.286
23015501,FRESNO  - AUT,Fresno,TOLIMA,5.155638889,-75.00313611
22045010,DEMOSTRACION GRANJA  - AUT,Chaparral,TOLIMA,3.722444444,-75.50344444
22077050,PIJAITO  - AUT,Rovira,TOLIMA,4.150388889,-75.306
21255501,LA TRINIDAD  - AUT,Líbano,TOLIMA,4.895,-75.04
2202500051,PLANADAS - AUT,Planadas,TOLIMA,3.2058,-75.6542
21227010,PIEDRAS  - AUT,Piedras,TOLIMA,4.535225,-74.88053056
21257090,LA ESMERALDA - AUT,Lérida,TOLIMA,4.890777778,-74.85313889
2121500048,IBAGUE - AUT,Ibagué,TOLIMA,4.418808333,-75.20585
2301700089,GUALÍ ALERTAS - AUT,Fresno,TOLIMA,5.134277778,-75.062055556
21257070,PUENTE SAN FRANCISCO  - AUT,Armero (Guayabal),TOLIMA,5.019916667,-74.89088889
22057060,LA MURALLA - AUT,Ataco,TOLIMA,3.481361111,-75.46697222
21187030,CUCUNUBA  - AUT,Valle De San Juan,TOLIMA,4.232055556,-75.09272222
21197030,LA PLAYA - AUT,Icononzo,TOLIMA,4.19225,-74.50072222
21257100,LA NUEVA - AUT,Venadillo,TOLIMA,4.795083333,-74.97194444
2119500111,BASE AEREA MELGAR - AUT,Melgar,TOLIMA,4.212219444,-74.636830556
21167090,HDA EL RUBY - En Siniestro,Cunday,TOLIMA,4.011,-74.719
2125700094,RECIO 1 - AUT,Líbano,TOLIMA,4.873833333,-75.042583333
23025040,ALBANIA,Mariquita,TOLIMA,5.286,-74.903
21140120,CRUCES LAS,Alpujarra,TOLIMA,3.426,-74.92
22055020,MESA DE POLE,Ataco,TOLIMA,3.456,-75.536
21185030,GUAMO,Guamo,TOLIMA,4.009,-74.981
22065040,SAN ANTONIO QUINTA,San Antonio,TOLIMA,3.907,-75.488
21135020,JABALCON,Saldaña,TOLIMA,3.856,-75.016
21255090,ARMERO GRANJA,Armero (Guayabal),TOLIMA,5.005,-74.91
22070030,SANTA HELENA,Roncesvalles,TOLIMA,4.125,-75.5
21185080,VALLE DE SAN JUAN,Valle De San Juan,TOLIMA,4.216,-75.105
22020020,PENA RICA,Planadas,TOLIMA,3.045,-75.762
22017020,SARDINAS LAS,Rioblanco,TOLIMA,3.438472222,-75.68658333
22077030,DIAMANTE EL,Roncesvalles,TOLIMA,4.024166667,-75.6085
21245140,SANTA ISABEL,Santa Isabel,TOLIMA,4.711861111,-75.09445556
21215150,NEVADO DEL TOLIMA,Anzoátegui,TOLIMA,4.670777778,-75.32777778
26195502,CIUDAD BOLIVAR  - AUT,Ciudad Bolívar,ANTIOQUIA,5.868666667,-75.99044167
26225060,HACIENDA COTOVE - AUT,Santa Fe De Antioquia,ANTIOQUIA,6.533916667,-75.82733333
11115501,CAÑASGORDAS  - AUT,Cañasgordas,ANTIOQUIA,6.748275,-76.03155556
23050420,ARGELIA ANTIOQUIA - AUT,Argelia,ANTIOQUIA,5.731138889,-75.13852778
27015320,ARAGON - AUT,Santa Rosa De Osos,ANTIOQUIA,6.781083333,-75.560888889
26205501,EL ROSARIO  - AUT,Venecia,ANTIOQUIA,5.625830556,-75.70527778
26185050,SANTA BARBARA - AUT,Santa Bárbara,ANTIOQUIA,5.859583333,-75.55627778
12015100,PISTA INDIRA - AUT,Turbo,ANTIOQUIA,7.94075,-76.69616667
27015330,APTO OLAYA HERRERA - TX GPRS,Medellín,ANTIOQUIA,6.221,-75.589
23105070,MACEO - AUT,Yolombó,ANTIOQUIA,6.571638889,-74.79472222
23087210,CANTERAS - AUT,Puerto Nare,ANTIOQUIA,6.276083333,-74.67330556
23085501,COCORNA  - AUT,Cocorná,ANTIOQUIA,6.061941667,-75.18666667
23085080,GRANJA EXPERIOMENTAL EL NUS  - AUT,San Roque,ANTIOQUIA,6.483583333,-74.83669444
23057140,SAN MIGUEL,Sonsón,ANTIOQUIA,5.731,-74.726
23085260,LA SELVA - AUT,Rionegro,ANTIOQUIA,6.131916667,-75.41455556
23085270,APTO J.M CORDOVA TX GPRS,Rionegro,ANTIOQUIA,6.169,-75.426
27015290,PAJARITO - AUT,Medellín,ANTIOQUIA,6.286333333,-75.61279167
26185030,JERICO - AUT,Jericó,ANTIOQUIA,5.799166667,-75.78952778
12015110,CHIGORODO - AUT,Chigorodó,ANTIOQUIA,7.671138889,-76.69405556
27015501,YOLOMBO  - AUT,Yolombó,ANTIOQUIA,6.580958333,-75.11487778
12027010,PUEBLO BELLO  - AUT,Turbo,ANTIOQUIA,8.204055556,-76.52466667
26247050,LAS CAMELIAS - AUT,Tarazá,ANTIOQUIA,7.582527778,-75.42005556
26215501,CONCORDIA  - AUT,Concordia,ANTIOQUIA,6.042441667,-75.92149722
23105060,VEGACHA,Vegachí,ANTIOQUIA,6.774,-74.797
26207080,BOLOMBOLO - AUT,Venecia,ANTIOQUIA,5.965944444,-75.84147222
26237040,PTO VALDIVIA,Valdivia,ANTIOQUIA,7.287,-75.396
26175502,LA CRISTALINA  - AUT,Támesis,ANTIOQUIA,5.7,-75.65999722
27015280,PARAMO BELMIRA - AUT,Entrerrios,ANTIOQUIA,6.632027778,-75.64444444
27027060,BRISAS DEL NECHI  - AUT,Angostura,ANTIOQUIA,6.939694444,-75.38083333
26180180,SONSON,Sonsón,ANTIOQUIA,5.71525,-75.2945
27037030,SAN JUAN NECHI,Zaragoza,ANTIOQUIA,7.475,-74.921
26247020,LA COQUERA,Caucasia,ANTIOQUIA,7.962,-75.196
23097030,PTO BERRIO TX GPRS,Puerto Berrío,ANTIOQUIA,6.485,-74.401
26165502,JARDIN  - AUT,Jardín,ANTIOQUIA,5.6,-75.84972222
11057020,SAN ANTONIO PADUA  - AUT,Vigia Del Fuerte,ANTIOQUIA,6.286666667,-76.76180556
2308500071,RETIRO - AUT,Retiro,ANTIOQUIA,6.060275,-75.509513889
23087230,PUERTO BELLO  - AUT,Puerto Nare,ANTIOQUIA,6.211972222,-74.60711111
26247010,PALMIRA HACIENDA  - AUT,Cáceres,ANTIOQUIA,7.796777778,-75.37252778
2619700161,SALGAR - AUT,Pueblorrico,ANTIOQUIA,5.880972222,-75.90825
26255030,SANTA ISABEL VALDIVIA - AUT,Valdivia,ANTIOQUIA,7.157277778,-75.44222222
12015060,TULENAPA  - AUT,Carepa,ANTIOQUIA,7.773944444,-76.66575
23087160,CARAMANTA  - AUT,San Roque,ANTIOQUIA,6.507333333,-74.86516667
26185501,SONSON  - AUT,Sonsón,ANTIOQUIA,5.677719444,-75.34780556
11117040,MUTATA  - AUT,Mutatá,ANTIOQUIA,7.229444444,-76.43805556
23087150,PUENTE REAL  - AUT,Rionegro,ANTIOQUIA,6.143472222,-75.37994444
1111500036,ABRIAQUI - AUT,Abriaquí,ANTIOQUIA,6.6363,-76.070733333
26217010,LA GALERA - AUT,Santa Fe De Antioquia,ANTIOQUIA,6.554972222,-75.86419444
26195501,ANDES  - AUT,Andes,ANTIOQUIA,5.660108333,-75.91413889
11077020,LA MAGDALENA - AUT,Urrao,ANTIOQUIA,6.298361111,-76.13447222
27015310,METROMEDELLIN - AUT,Bello,ANTIOQUIA,6.32975,-75.55211111
11117050,DABEIBA 2  - AUT,Dabeiba,ANTIOQUIA,7.004388889,-76.26638889
2621500070,ITUANGO - AUT,Ituango,ANTIOQUIA,7.175363889,-75.766358333
11115020,CAÑASGORDAS  - AUT,Cañasgordas,ANTIOQUIA,6.758027778,-76.02966667
2308500068,SANTUARIO - AUT,Santuario,ANTIOQUIA,6.133027778,-75.275266667
23107020,LA BODEGA - AUT,Yondó (Casabe),ANTIOQUIA,6.732194444,-74.40694444
25027050,MARGENTO  - AUT,Caucasia,ANTIOQUIA,8.025444444,-75.08975
27037010,LA ESPERANZA NECHI,Nechí,ANTIOQUIA,8.03,-74.786
2702500107,ANGOSTURA - AUT,Angostura,ANTIOQUIA,6.900555556,-75.326019444
23087660,PUENTE LA FERIA  - AUT,Marinilla,ANTIOQUIA,6.172666667,-75.33786111
12017020,BARRANQUILLITA  - AUT,Chigorodó,ANTIOQUIA,7.571583333,-76.71055556
23087190,LA GARRUCHA - AUT,San Luis,ANTIOQUIA,5.998361111,-74.93825
2703700106,EL RETIRO - AUT,El Bagre,ANTIOQUIA,7.561888889,-74.804222222
27037020,RETIRO EL,El Bagre,ANTIOQUIA,7.56,-74.799
2625700231,EL BAGRE,Caucasia,ANTIOQUIA,8.0,-75.0
2620500210,UFRANÁ,Titiribí,ANTIOQUIA,6.085388889,-75.811972222
25027270,LAS FLORES,Nechí,ANTIOQUIA,8.102,-74.773
27025030,ANORI,Anorí,ANTIOQUIA,7.0719,-75.1505
26207030,PUENTE IGLESIAS,Fredonia,ANTIOQUIA,5.829944444,-75.7055
2701500213,ALTO DE LA CRUZ,Amalfi,ANTIOQUIA,6.91,-75.078888889
2620500211,EL PLAN,Fredonia,ANTIOQUIA,5.924716667,-75.667316667
26185020,MESOPOTAMIA,La Unión,ANTIOQUIA,5.88636111,-75.31863889
26200120,OTRAMINA,Titiribí,ANTIOQUIA,6.07294444,-75.79458333
26237100,OLAYA,Liborina,ANTIOQUIA,6.64494444,-75.82616667
26175040,HACIENDA TUNEZ,Fredonia,ANTIOQUIA,5.80025,-75.65097222
11115040,MUSINGA,Frontino,ANTIOQUIA,6.777972222,-76.20333333
27010810,SANTA ELENA,Medellín,ANTIOQUIA,6.196888889,-75.51675
27015190,GUAYABITO,Santo Domingo,ANTIOQUIA,6.540388889,-75.14675
1111500203,CAMPO ALEGRE,Dabeiba,ANTIOQUIA,7.026813889,-76.252825
2620500209,ACUEDUCTO ARMENIA,Armenia,ANTIOQUIA,6.161666667,-75.775805556
27010850,AMALFI,Amalfi,ANTIOQUIA,6.905555556,-75.07722222
23175020,AEROPUERTO OTU,Remedios,ANTIOQUIA,7.01175,-74.71630556
23085220,SAN CARLOS,San Carlos,ANTIOQUIA,6.157666667,-75.03891667
23087670,RIOTEX,Rionegro,ANTIOQUIA,6.18125,-75.36638889
27011100,LAS BRISAS,Segovia,ANTIOQUIA,7.158805556,-74.82183333
23085160,CORRIENTES,San Vicente,ANTIOQUIA,6.311944444,-75.25355556
11117010,EL AÑIL,Uramita,ANTIOQUIA,6.873888889,-76.14958333
27015260,LA SALADA,Caldas,ANTIOQUIA,6.048361111,-75.62466667
23105030,VEGACHI,Vegachí,ANTIOQUIA,6.774111111,-74.79652778
27035050,SENA - EL BAGRE,El Bagre,ANTIOQUIA,7.584666667,-74.800694444
25021480,LA ESPERANZA RADIO,Nechí,ANTIOQUIA,8.03,-74.79
11110110,BOQUERON DE TOYO,Giraldo,ANTIOQUIA,6.699444444,-75.9775
11110010,NORMAL SANTA TERESA,Frontino,ANTIOQUIA,6.763333333,-76.13361111
12025040,TURBO,Turbo,ANTIOQUIA,8.091805556,-76.71633333
27030140,LA PALMA DE COCO,Segovia,ANTIOQUIA,7.236111111,-74.80794444
1111700231,MUTATA,Mutatá,ANTIOQUIA,7.239491667,-76.433458333
